City ID,City,Country,Lat,Lng,Temperature,Humidity,Clouds,Wind Speed
6167865,Toronto,CA,43.7001,-79.4163,28.94,47,32,7.96
3833367,Ushuaia,AR,-54.8,-68.3,44.6,57,40,35.68
4020109,Atuona,PF,-9.8,-139.0333,78.76,62,72,2.73
3883457,Lebu,CL,-37.6167,-73.65,64.87,61,0,8.61
6165406,Thompson,CA,55.7435,-97.8558,15.8,67,20,11.5
5044290,Saint Anthony,US,45.0205,-93.218,43.79,53,1,10.36
110690,Faya,SA,18.3851,42.4509,71.6,49,0,9.22
3115824,Muros,ES,42.7762,-9.0603,57.0,73,85,8.01
4030556,Rikitea,PF,-23.1203,-134.9692,79.23,78,72,6.69
2121197,Sinegor'ye,RU,62.0788,150.477,-16.38,90,73,2.48
3060835,Čadca,SK,49.435,18.789,49.08,43,20,16.11
6167817,Torbay,CA,47.6666,-52.7314,43.75,61,20,14.97
2155415,New Norfolk,AU,-42.7826,147.0587,46.87,57,40,6.91
2126199,Cherskiy,RU,68.75,161.3,-7.44,96,100,18.52
2206939,Bluff,NZ,-46.6,168.3333,46.99,92,4,8.03
5106841,Albany,US,42.6001,-73.9662,31.96,32,0,1.01
3430863,Mar del Plata,AR,-38.0023,-57.5575,73.4,49,0,9.22
2094342,Kavieng,PG,-2.5744,150.7967,81.77,63,0,4.32
964432,Port Alfred,ZA,-33.5906,26.891,81.0,64,79,7.9
3860443,Comodoro Rivadavia,AR,-45.8667,-67.5,68.0,34,0,13.8
5848280,Kapaa,US,22.0752,-159.319,69.3,94,90,29.93
2027042,Batagay-Alyta,RU,67.8006,130.4114,-19.88,80,76,2.33
98182,Baghdad,IQ,33.3406,44.4009,64.4,27,0,6.91
3372964,Lagoa,PT,39.05,-27.9833,59.77,82,100,24.74
5282297,Bethel,US,41.3712,-73.414,35.56,28,1,10.36
2110227,Butaritari,KI,3.0707,172.7902,80.47,81,44,10.85
2075265,Busselton,AU,-33.65,115.3333,55.6,84,0,14.07
1499428,Mamontovo,RU,52.7055,81.6244,-7.64,97,86,8.77
2163355,Hobart,AU,-42.8794,147.3294,47.44,57,40,6.91
4419500,Brookhaven,US,31.5791,-90.4407,64.4,94,90,3.44
1507390,Dikson,RU,73.5069,80.5464,-21.6,96,100,18.43
610298,Beyneu,KZ,45.3167,55.2,26.08,40,28,8.12
4032243,Vaini,TO,-21.2,-175.2,69.8,94,20,3.44
964420,Port Elizabeth,ZA,-33.918,25.5701,75.2,64,0,13.8
5122534,Jamestown,US,42.097,-79.2353,27.63,68,1,7.47
5983720,Iqaluit,CA,63.7506,-68.5145,-13.5,64,40,17.27
2171722,Charters Towers,AU,-20.1,146.2667,72.32,83,0,6.51
1043893,Lichinga,MZ,-13.3128,35.2406,66.11,94,75,5.75
2947641,Blomberg,DE,51.9433,9.0907,41.36,92,100,8.01
5558953,Arcata,US,40.8665,-124.0828,43.97,93,90,4.61
5924351,Clyde River,CA,70.4692,-68.5914,-5.8,84,75,19.57
6355222,Yulara,AU,-25.2406,130.9889,68.0,77,90,13.8
3693646,Picota,PE,-6.9197,-76.3304,80.67,74,75,3.44
3466704,Castro,BR,-24.7911,-50.0119,79.11,54,15,4.36
1528998,Yumen,CN,40.2833,97.2,50.86,24,67,15.41
3697838,Contamana,PE,-7.3333,-75.0167,88.32,51,37,4.47
5880054,Barrow,US,71.2906,-156.7887,-13.0,70,1,18.41
5710360,Winnemucca,US,40.973,-117.7357,17.6,73,1,5.75
2381972,Adrar,MR,20.5022,-10.0711,84.33,8,97,12.71
3874787,Punta Arenas,CL,-53.15,-70.9167,50.0,46,75,26.46
4341513,Shreveport,US,32.5251,-93.7502,65.25,88,90,9.22
1278935,Amalāpuram,IN,16.5833,82.0167,84.2,58,1,10.36
3366880,Hermanus,ZA,-34.4187,19.2345,75.0,69,79,1.99
3393115,Paracuru,BR,-3.41,-39.0306,82.99,71,84,15.01
1812805,Dinghaicun,CN,26.2847,119.7936,55.4,76,75,6.71
3443061,Chui,UY,-33.6971,-53.4616,75.09,62,78,7.29
3831208,Qaanaaq,GL,77.484,-69.3632,-1.82,64,98,3.4
2136825,Isangel,VU,-19.55,169.2667,77.0,94,75,11.03
5855927,Hilo,US,19.7297,-155.09,65.25,82,1,7.43
898912,Serenje,ZM,-13.2325,30.2352,69.58,92,100,5.41
3393471,Oriximiná,BR,-1.7656,-55.8661,87.89,55,82,2.64
5866583,Saint Paul Harbor,US,57.79,-152.4072,23.0,39,1,18.41
1804874,Kaihua,CN,23.3687,104.28,59.65,97,2,6.31
4034551,Faanui,PF,-16.4833,-151.75,81.68,71,10,6.22
3347019,Mossamedes,AO,-15.1961,12.1522,82.4,61,75,12.66
3361142,Springbok,ZA,-29.6643,17.8865,79.99,26,8,16.93
935215,Saint-Philippe,RE,-21.3585,55.7679,75.13,74,20,20.71
6185377,Yellowknife,CA,62.456,-114.3525,-13.5,76,20,5.75
6170031,Tuktoyaktuk,CA,69.4541,-133.0374,-11.2,77,90,6.91
2209055,Waddān,LY,29.1614,16.139,75.49,18,61,19.73
4636045,Lebanon,US,36.2081,-86.2911,51.76,93,90,4.61
4031574,Provideniya,RU,64.3833,-173.3,29.37,97,100,23.24
314967,Fethiye,TR,36.6217,29.1164,62.6,51,75,5.75
5557293,Sitka,US,57.0531,-135.33,30.2,64,90,14.97
100926,Umluj,SA,25.0213,37.2685,74.12,63,56,11.16
2022572,Khatanga,RU,71.9667,102.5,-8.93,82,100,13.02
286245,Sur,OM,22.5667,59.5289,81.66,45,0,17.22
1015776,Bredasdorp,ZA,-34.5322,20.0403,80.6,50,81,6.91
352733,Marsá Maţrūḩ,EG,31.3525,27.2453,62.6,55,75,11.5
2757220,Den Helder,NL,52.9599,4.7593,45.12,76,90,34.52
2381334,Atar,MR,20.5169,-13.0499,89.44,5,1,14.27
3374210,São Filipe,CV,14.8961,-24.4956,73.08,66,11,7.81
3892454,Diego de Almagro,CL,-26.3667,-70.05,76.53,34,0,8.68
546105,Nikolskoye,RU,59.7035,30.7861,38.03,81,20,6.71
3372707,Ribeira Grande,PT,38.5167,-28.7,60.8,94,75,17.27
5546220,Saint George,US,37.1041,-113.5841,32.7,93,90,3.44
2125693,Evensk,RU,61.95,159.2333,-3.86,74,95,7.36
2016422,Slyudyanka,RU,51.6594,103.7061,33.69,74,95,2.98
3421719,Narsaq,GL,60.9167,-46.05,21.2,38,90,3.44
6201424,Mataura,NZ,-46.1927,168.8643,46.99,92,0,2.62
934322,Mahébourg,MU,-20.4081,57.7,80.6,78,75,9.22
2017215,Sangar,RU,63.9242,127.4739,6.75,91,100,18.92
2065594,Mount Isa,AU,-20.7333,139.5,77.0,73,93,10.36
1278458,Arang,IN,21.2,81.9667,80.6,54,19,2.3
2123814,Leningradskiy,RU,69.3833,178.4167,14.0,77,51,10.04
1282256,Hithadhoo,MV,-0.6,73.0833,84.33,65,46,7.07
3412888,Stykkisholmur,IS,65.0757,-22.7297,26.65,61,89,12.21
2171099,Codrington,AU,-38.2667,141.9667,52.3,66,0,10.4
1688781,City of San Pedro,PH,14.35,121.0167,79.11,74,75,8.05
1835848,Seoul,KR,37.5683,126.9778,42.76,87,0,3.44
342567,Bedelē,ET,8.456,36.353,80.67,25,48,0.87
3397963,Itamaracá,BR,-7.7478,-34.8256,84.2,61,40,11.5
1786764,Yichang,CN,30.7144,111.2847,54.0,88,99,3.09
2427336,Moussoro,TD,13.6408,16.4901,108.86,4,0,14.65
2132606,Samarai,PG,-10.6167,150.6667,81.81,81,94,9.28
3521108,Progreso,MX,21.2833,-89.6667,79.43,65,1,11.5
1516048,Khovd,MN,48.0056,91.6419,40.89,45,98,18.52
3421765,Nanortalik,GL,60.1432,-45.2371,27.73,58,100,10.58
2738381,Lata,PT,40.1629,-8.3327,59.38,60,51,3.0
3924668,Abapó,BO,-18.8333,-63.4667,89.53,31,28,4.52
2139521,Noumea,NC,-22.2763,166.4572,73.4,78,0,9.35
1214488,Meulaboh,ID,4.1363,96.1285,74.26,95,100,10.65
2122090,Pevek,RU,69.7008,170.3133,11.57,95,100,7.38
780687,Berlevåg,NO,70.8578,29.0864,23.0,74,75,6.91
962367,Richards Bay,ZA,-28.783,32.0377,83.48,66,0,13.44
57000,Hobyo,SO,5.3505,48.5268,81.54,72,56,14.45
1259385,Port Blair,IN,11.6667,92.75,81.28,72,14,4.07
3652764,Puerto Ayora,EC,-0.7393,-90.3518,81.52,78,40,11.5
1855612,Nara,JP,34.6851,135.8049,44.78,58,5,3.0
3118304,Llanes,ES,43.4198,-4.7549,59.99,58,42,13.0
2629833,Husavik,IS,66.0449,-17.3389,26.6,74,75,17.27
3419842,Sisimiut,GL,66.9395,-53.6735,13.57,85,97,4.61
1283285,Jumla,NP,29.2747,82.1838,42.19,84,38,2.42
2184707,Wanaka,NZ,-44.7,169.15,47.57,88,0,6.17
2074113,Collie,AU,-33.3667,116.15,55.0,76,0,8.48
935214,Saint-Pierre,RE,-21.3393,55.4781,76.03,74,20,20.71
2374583,Bubaque,GW,11.2833,-15.8333,78.66,62,97,12.19
1006984,East London,ZA,-33.0153,27.9116,86.0,45,20,5.75
2396518,Port-Gentil,GA,-0.7193,8.7815,87.8,62,20,5.75
3919998,Cobija,BO,-11.0267,-68.7692,78.8,78,40,3.44
5386754,Redlands,US,34.0556,-117.1825,42.03,81,1,2.01
2457161,Gao,ML,16.6362,1.637,91.02,6,0,11.05
236524,Rafai,CF,4.95,23.9167,94.73,30,85,5.46
5367788,Lompoc,US,34.6391,-120.4579,48.11,76,90,5.75
3460513,Iturama,BR,-19.7281,-50.1956,84.16,53,99,4.83
3466165,Cidreira,BR,-30.1811,-50.2056,79.3,61,25,7.02
3650121,Yaguachi Nuevo,EC,-2.1167,-79.6833,78.8,83,75,4.61
1067565,Beloha,MG,-25.1667,45.05,76.89,73,1,17.78
1513491,Yangi Marg`ilon,UZ,40.4272,71.7189,51.8,71,100,2.3
2641598,Newport,GB,51.5877,-2.9984,40.68,82,92,1.01
3355672,Lüderitz,NA,-26.6481,15.1594,73.85,65,3,13.98
3868633,Vallenar,CL,-28.5708,-70.7581,75.99,49,1,6.49
4035715,Avarua,CK,-21.2078,-159.775,77.0,88,40,8.05
2074865,Carnarvon,AU,-24.8667,113.6333,80.6,78,0,13.8
3466980,Caravelas,BR,-17.7125,-39.2481,86.31,50,0,8.34
217570,Buta,CD,2.7858,24.73,86.54,62,99,0.78
3664078,Humaitá,BR,-7.5061,-63.0208,90.54,50,39,2.73
3628473,San Cristobal,VE,7.7669,-72.225,71.6,88,75,3.44
3893726,Constitución,CL,-35.3333,-72.4167,66.9,67,0,8.03
3932145,Pisco,PE,-13.7,-76.2167,73.22,83,20,6.91
3985710,Cabo San Lucas,MX,22.8909,-109.9124,63.86,72,1,10.13
2514651,Los Llanos de Aridane,ES,28.6585,-17.9182,65.88,56,20,8.05
2145554,Ulladulla,AU,-35.35,150.4667,67.55,88,100,16.11
3661944,Tefé,BR,-3.3542,-64.7114,82.4,78,40,8.05
986717,Kruisfontein,ZA,-34.0033,24.7314,77.0,59,49,5.99
2541479,Nador,MA,35.174,-2.9287,67.03,63,20,6.91
1633419,Padang,ID,-0.9492,100.3543,78.8,89,90,5.75
4031637,Lavrentiya,RU,65.5833,-171.0,17.28,94,100,22.15
2012530,Zhigansk,RU,66.7697,123.3711,5.47,95,100,9.19
8079926,Labuhan,ID,-6.8844,112.2051,79.68,81,100,5.1
2126710,Beringovskiy,RU,63.05,179.3167,16.9,93,11,7.54
3939168,Huarmey,PE,-10.0681,-78.1522,76.12,71,32,8.23
123941,Mīnāb,IR,27.1467,57.0801,78.8,69,0,13.8
1635283,Metro,ID,-5.1131,105.3067,75.7,90,50,2.62
2799370,Diksmuide,BE,51.0333,2.8667,49.08,61,20,27.63
909887,Luangwa,ZM,-15.6167,30.4167,81.1,73,100,4.97
2022773,Khandyga,RU,62.6667,135.6,-3.24,87,71,4.94
1649150,Bengkulu,ID,-3.8004,102.2655,77.88,82,100,4.47
4231997,Avera,US,33.194,-82.5271,68.94,60,1,3.44
5919850,Chapais,CA,49.7834,-74.8492,5.0,66,90,9.22
3418910,Upernavik,GL,72.7868,-56.1549,-2.16,67,0,8.1
1790645,Amoy,CN,24.4798,118.0819,62.6,67,75,11.18
2643044,Margate,GB,51.3813,1.3862,49.14,49,77,8.99
707695,Illintsi,UA,49.1048,29.2177,42.4,70,0,11.18
4362001,Mayo,US,38.8876,-76.5119,46.4,29,1,10.36
145724,Lucapa,AO,-8.4192,20.7447,78.49,72,94,5.77
152451,Musoma,TZ,-1.5,33.8,87.8,42,40,11.5
5850554,Makakilo City,US,21.3469,-158.0858,67.14,83,1,9.22
4036284,Alofi,NU,-19.0595,-169.9187,69.8,94,23,1.14
921889,Fomboni,KM,-12.28,43.7425,84.09,69,100,7.02
2264557,Ponta do Sol,PT,32.6667,-17.1,59.38,63,100,3.0
5883166,Alberton,CA,46.8168,-64.0654,27.48,68,100,34.52
4021858,Guerrero Negro,MX,27.9769,-114.0611,56.07,60,4,17.49
3369157,Cape Town,ZA,-33.9258,18.4232,75.27,57,20,20.71
556268,Ostrovnoy,RU,68.0531,39.5131,14.63,89,33,16.08
866301,Vozrozhdeniye,RU,44.5503,38.2136,38.19,77,100,5.23
3393536,Olinda,BR,-8.0089,-34.8553,84.2,61,40,11.5
2410624,Baiima,SL,8.1,-11.85,94.37,41,99,4.0
4033543,Teahupoo,PF,-17.8333,-149.2667,77.0,88,20,3.44
150436,Rulenge,TZ,-2.7175,30.6325,77.29,68,100,2.82
3451234,Rio Claro,BR,-22.4114,-47.5614,84.2,61,0,5.75
4033356,Tiarei,PF,-17.5333,-149.3333,77.0,88,20,3.44
2180815,Tuatapere,NZ,-46.1333,167.6833,46.99,92,1,5.1
3933104,Pangoa,PE,-12.1167,-73.0,69.03,97,100,1.48
3577933,Chateaubelair,VC,13.2833,-61.25,82.4,74,75,11.5
1796663,Bantou,CN,26.2151,117.4893,62.46,93,48,1.16
2208248,Kaitangata,NZ,-46.2817,169.8464,51.01,90,0,1.99
1700869,Mariveles,PH,14.4833,120.4833,80.04,73,75,8.05
3404558,Cabedelo,BR,-6.9811,-34.8339,86.0,66,75,12.66
2147914,Sunbury,AU,-37.5833,144.7333,49.62,87,20,10.36
2017155,Saskylakh,RU,71.9167,114.0833,-6.34,95,0,11.74
141736,Bam,IR,29.106,58.357,67.82,25,11,11.07
1687186,Sarangani,PH,5.4033,125.4636,82.06,76,0,7.54
174448,Abu Kamal,SY,34.4506,40.9171,61.38,19,0,7.02
3372760,Praia da Vitória,PT,38.7333,-27.0667,61.32,88,75,24.56
3663517,Manaus,BR,-3.1019,-60.025,77.04,89,75,1.14
1688859,San Nicolas,PH,18.1725,120.5953,77.0,69,20,3.44
6096551,Pangnirtung,CA,66.1451,-65.7125,-20.2,76,20,2.55
1538648,Toktogul,KG,41.8708,72.9402,44.1,81,100,1.36
2446796,Bilma,NE,18.6853,12.9164,102.81,4,0,13.53
3894426,Coyhaique,CL,-45.5752,-72.0662,60.8,55,0,3.2
2729907,Longyearbyen,SJ,78.2186,15.6401,-0.72,86,48,4.45
5975004,High Level,CA,58.5169,-117.136,10.4,85,90,8.05
1502066,Krasnoshchekovo,RU,51.6708,82.7289,-4.07,90,88,6.78
751335,Bafra,TR,41.5678,35.9069,51.01,60,100,5.01
474354,Verkhovazh'ye,RU,60.7472,42.0465,23.45,89,100,12.77
4463810,Dobson,US,36.3957,-80.7226,58.39,31,1,4.61
1735106,George Town,MY,5.4112,100.3354,80.38,88,40,3.44
5962442,Goderich,CA,43.7501,-81.7165,28.4,69,27,10.36
934482,Grand Baie,MU,-20.0182,57.5802,81.0,73,73,5.99
779261,Kjøllefjord,NO,70.9457,27.3465,23.0,74,75,6.91
1852357,Shimoda,JP,34.6667,138.95,46.0,93,9,1.01
5882953,Aklavik,CA,68.2191,-135.0107,-22.0,76,20,4.61
3520994,Puerto Escondido,MX,15.85,-97.0667,84.2,74,1,2.51
1509819,Bolotnoye,RU,55.6717,84.3981,1.62,93,100,15.28
3893629,Coquimbo,CL,-29.9533,-71.3436,66.2,63,40,4.61
3408368,Acaraú,BR,-2.8856,-40.12,85.37,64,100,12.41
1526041,Atasū,KZ,48.6814,71.6433,-5.35,91,100,9.57
3084404,Gmina Strzelin,PL,50.7816,17.0648,49.64,57,20,13.8
4033557,Tautira,PF,-17.7333,-149.15,77.0,88,20,3.44
2092164,Lorengau,PG,-2.0226,147.2712,81.07,71,14,2.48
2144528,Warrnambool,AU,-38.3833,142.4833,51.01,78,0,12.93
504269,Pudozh,RU,61.8099,36.5345,33.1,97,100,13.76
2153778,Parkes,AU,-33.1333,148.1833,70.0,79,100,11.59
2653755,Carmarthen,GB,51.8555,-4.3054,42.24,65,75,34.52
2112309,Katsuura,JP,35.1333,140.3,50.79,87,20,3.44
1819729,Hong Kong,HK,22.2855,114.1577,68.47,83,3,3.0
5847411,Kahului,US,20.8947,-156.47,65.39,79,80,10.36
1591474,Bac Lieu,VN,9.285,105.7244,78.13,77,0,11.16
1673820,Kaohsiung City,TW,22.6163,120.3133,70.3,73,75,5.75
4255151,Bud,US,39.447,-86.1758,41.99,47,98,5.17
6324729,Halifax,CA,44.6453,-63.5724,32.43,69,44,12.66
1559582,Palau,PW,7.503,134.621,77.0,94,75,5.64
2090021,Namatanai,PG,-3.6667,152.4333,79.11,77,27,5.28
293842,Kiryat Gat,IL,31.61,34.7642,61.84,55,0,1.99
2450173,Taoudenni,ML,22.6783,-3.9836,86.31,22,12,16.13
3629710,Puerto Ayacucho,VE,5.6639,-67.6236,87.4,59,77,1.68
1259184,Puri,IN,19.8,85.85,80.6,69,0,6.91
555111,Ivanteyevka,RU,55.9711,37.9208,27.68,74,90,13.42
7671223,Kloulklubed,PW,7.0419,134.2556,77.0,94,75,3.6
1811720,Enshi,CN,30.3,109.4833,60.15,86,1,2.62
3645532,Ciudad Bolivar,VE,8.1222,-63.5497,86.95,52,95,9.62
4845585,Westport,US,41.1415,-73.3579,38.03,26,1,14.97
2012646,Zarubino,RU,42.63,131.0922,36.21,69,4,4.43
1272140,Dwārka,IN,22.2394,68.9678,78.15,71,0,14.43
2294962,Swedru,GH,5.5371,-0.6998,87.8,70,20,16.11
3416888,Grindavik,IS,63.8424,-22.4338,28.4,59,40,20.71
797213,Pervomayskoye,RU,43.919,46.7102,30.65,77,100,9.48
3984997,San Quintín,MX,30.4833,-115.95,51.71,66,20,5.79
2070998,Geraldton,AU,-28.7667,114.6,75.2,31,0,17.27
3361934,Saldanha,ZA,-33.0117,17.9442,73.4,64,44,5.75
2109528,Buala,SB,-8.145,159.5921,78.96,81,100,7.99
964712,Plettenberg Bay,ZA,-34.0527,23.3716,71.38,68,56,5.03
2173125,Burnie,AU,-41.0667,145.9167,46.0,81,0,10.0
2063036,Port Lincoln,AU,-34.7333,135.8667,56.53,62,34,12.21
2828737,Steinbach am Taunus,DE,50.1667,8.5667,49.37,61,40,24.16
2083537,Wewak,PG,-3.5534,143.6268,79.75,85,100,9.35
872144,Sovkhoznyy,RU,45.2946,38.1138,43.72,52,40,8.95
4726521,San Patricio,US,28.017,-97.5169,72.9,88,90,17.27
1847947,Shingū,JP,33.7333,135.9833,44.6,75,0,5.97
2126123,Chokurdakh,RU,70.6333,147.9167,-21.21,90,0,3.15
3105522,Bereda,ES,43.2686,-7.5406,50.0,87,81,11.99
3471451,Arraial do Cabo,BR,-22.9661,-42.0278,86.0,70,40,9.22
2191562,Dunedin,NZ,-45.8742,170.5036,55.45,87,0,8.01
2027296,Aykhal,RU,66.0,111.5,-3.91,94,6,15.55
3430708,Mercedes,AR,-34.6515,-59.4307,82.67,46,0,4.0
863061,Usinsk,RU,65.9939,57.5281,14.67,90,99,15.48
5955902,Fort Nelson,CA,58.8053,-122.7002,5.0,78,90,8.05
1651810,Airai,TL,-8.9266,125.4092,61.63,95,100,1.3
2121385,Severo-Kuril'sk,RU,50.6789,156.125,28.54,83,80,17.49
3108287,Tarragona,ES,41.129,1.249,61.54,59,0,11.5
2015352,Terney,RU,45.0503,136.6092,34.54,75,100,5.66
5972762,Hay River,CA,60.8156,-115.7999,-8.48,71,98,5.75
3673536,Orocué,CO,4.7912,-71.3354,89.17,45,99,8.19
1492566,Severo-Yeniseyskiy,RU,60.3725,93.0408,2.91,88,98,14.7
1642773,Japura,ID,-0.3167,102.35,74.46,93,4,2.28
5475352,Las Cruces,US,32.3123,-106.7783,45.36,42,1,20.71
1252795,Yanam,IN,16.7333,82.2167,84.2,58,0,10.36
3899695,Ancud,CL,-41.8697,-73.8203,57.2,72,0,9.22
3424607,Tasiilaq,GL,65.6145,-37.6368,21.2,68,75,17.27
2477537,Tazmalt,DZ,36.3868,4.3989,64.98,55,44,6.58
3574724,Couva,TT,10.4225,-61.4675,80.62,78,75,11.5
1502750,Kommunisticheskiy,RU,61.6789,64.4819,17.35,85,0,10.02
1795632,Shenjiamen,CN,29.9576,122.298,50.5,83,97,5.41
2176639,Batemans Bay,AU,-35.7167,150.1833,64.13,90,100,3.0
3354071,Oranjemund,NA,-28.55,16.4333,72.52,64,0,9.84
3598787,Champerico,GT,14.3,-91.9167,82.4,78,40,4.59
3407762,Amapá,BR,1.0,-52.0,88.72,57,82,1.77
1529484,Kumul,CN,42.8,93.45,58.17,23,37,11.72
5815599,West Richland,US,46.3043,-119.3614,32.22,100,1,1.14
4676206,Brenham,US,30.1669,-96.3977,69.98,83,90,9.22
5983607,Inuvik,CA,68.3499,-133.7218,-19.23,76,97,2.3
2654970,Brae,GB,60.3964,-1.353,42.8,81,40,23.02
898905,Sesheke,ZM,-17.4759,24.2968,81.39,57,27,8.7
2448083,Agadez,NE,19.75,10.25,96.33,6,1,4.03
1487332,Verkhnyaya Inta,RU,65.9811,60.3094,16.95,88,100,19.26
2287778,Jacqueville,CI,5.2052,-4.4146,84.2,79,20,14.97
1639304,Kualakapuas,ID,-3.0091,114.3876,77.0,88,75,4.61
5110365,Broome,US,42.2506,-75.833,28.83,43,1,10.36
5572400,Susanville,US,40.4163,-120.653,28.4,69,1,3.71
4505215,Amberley,US,39.2048,-84.428,42.08,42,1,3.44
3870243,Taltal,CL,-25.4,-70.4833,70.61,74,2,5.12
2270385,Camacha,PT,33.0833,-16.3333,60.8,88,40,16.11
2020838,Lensk,RU,60.7253,114.9278,13.91,89,100,10.78
2961459,Skibbereen,IE,51.55,-9.2667,44.6,61,20,20.71
2134814,Sola,VU,-13.8833,167.55,78.75,80,100,9.1
566868,Dedovichi,RU,57.5517,29.9502,35.89,93,100,9.35
3557758,Guane,CU,22.2025,-84.0875,77.9,58,7,12.35
3835869,Santiago del Estero,AR,-27.7951,-64.2615,77.63,46,100,4.56
1337617,Muli,MV,2.9167,73.5667,83.23,73,67,11.23
5742974,North Bend,US,43.4065,-124.2243,38.79,100,90,6.91
1626542,Sorong,ID,-0.8833,131.25,80.62,77,100,4.61
5563839,Fortuna,US,40.5982,-124.1573,43.9,93,90,3.44
2147714,Sydney,AU,-33.8679,151.2073,76.44,78,75,3.44
4220629,St. Marys,US,30.7305,-81.5465,71.82,73,1,6.91
3392998,Utinga,BR,-5.8172,-35.3954,87.06,55,75,13.8
2063523,Perth,AU,-31.9333,115.8333,66.13,45,0,9.22
2702979,Jönköping,SE,57.7814,14.1562,39.2,81,75,10.36
1267390,Kavaratti,IN,10.5669,72.642,83.97,66,0,6.51
2174444,Bowen,AU,-20.0167,148.2333,73.4,94,1,2.3
777019,Vardø,NO,70.3705,31.1107,24.8,74,75,8.05
2537881,Safi,MA,32.2994,-9.2372,67.24,65,5,19.91
3041203,Canillo,AD,42.5833,1.6667,44.55,35,20,18.41
3401188,Curuçá,BR,-0.7289,-47.8481,81.66,85,100,4.16
3385670,Urucará,BR,-2.5364,-57.76,87.44,60,45,2.62
6149374,Slave Lake,CA,55.2834,-114.769,33.8,75,90,12.66
2181625,Te Anau,NZ,-45.4167,167.7167,52.84,81,17,6.26
88834,Tūkrah,LY,32.5341,20.5791,59.81,58,41,13.38
2346995,Biu,NG,10.6129,12.1946,100.42,13,32,6.13
2068655,Katherine,AU,-14.4667,132.2667,80.6,78,87,5.75
5911440,Burgeo,CA,47.6167,-57.6152,30.42,76,100,20.31
1259811,Phaltan,IN,17.9833,74.4333,84.61,13,21,8.68
5746545,Portland,US,45.5234,-122.6762,35.29,93,75,2.35
2127202,Anadyr,RU,64.75,177.4833,24.8,86,21,20.13
2108502,Honiara,SB,-9.4333,159.95,76.71,90,100,2.84
1495586,Parabel',RU,58.6978,81.4825,12.24,91,100,11.59
1855540,Naze,JP,28.3667,129.4833,57.88,72,80,9.04
1801640,Luzhou,CN,28.8724,105.4405,71.35,47,2,6.73
4984075,Alpena,US,45.0617,-83.4327,32.58,43,1,11.5
1293625,Dawei,MM,14.0833,98.2,78.67,88,75,1.34
1258637,Ramnagar,IN,29.4,79.1167,72.16,24,82,4.47
2013727,Vanavara,RU,60.34,102.2797,3.87,96,60,5.64
2636638,Stromness,GB,58.965,-3.296,44.6,76,20,19.57
1106677,Bambous Virieux,MU,-20.3428,57.7575,80.78,78,75,9.22
3460622,Itarantim,BR,-15.6597,-40.0656,80.29,63,85,6.42
2039557,Khasan,RU,42.4308,130.6434,38.77,76,19,4.59
2172797,Cairns,AU,-16.9167,145.7667,77.38,78,95,8.05
4018435,Antonio Escobedo,MX,20.8,-104.0167,69.48,29,0,5.01
1269507,Jaisalmer,IN,26.9147,70.9181,80.19,19,70,8.84
245338,Am Timan,TD,11.0297,20.2827,106.93,6,99,8.55
1524606,Derzhavīnsk,KZ,51.1,66.3167,-5.03,93,0,4.81
2194098,Ahipara,NZ,-35.1667,173.1667,59.81,94,20,4.79
2649784,Eyemouth,GB,55.8713,-2.0901,44.51,73,2,1.01
1637001,Biak,ID,-0.9131,122.8766,76.82,86,85,2.91
2276492,Harper,LR,4.375,-7.7169,84.27,73,100,8.12
2270380,Câmara de Lobos,PT,32.6333,-16.9667,59.38,77,40,10.36
2063042,Port Hedland,AU,-20.3167,118.5667,82.4,89,97,9.22
3412093,Vestmannaeyjar,IS,63.4427,-20.2734,33.8,51,0,23.02
336372,Waliso,ET,8.5333,37.9833,80.01,23,54,6.96
6078372,Moose Factory,CA,51.2585,-80.6094,14.0,73,90,16.11
304041,Muş Province,TR,39.0,41.75,20.48,80,0,4.56
303750,Tall Kayf,TR,37.0833,41.0667,60.8,39,0,6.91
1065158,Farafangana,MG,-22.8167,47.8333,78.37,75,12,7.29
1133310,Mīrābād,AF,30.4362,61.8383,85.23,11,1,23.09
686090,Asău,RO,46.4333,26.4,48.0,38,63,3.62
1494088,Promyshlennyy,RU,67.5833,63.9167,13.87,94,100,13.89
2293538,Abidjan,CI,5.3094,-4.0197,84.2,79,20,14.97
710935,Chaplynka,UA,46.3651,33.5403,43.07,75,100,5.79
1856068,Nago,JP,26.5881,127.9761,60.62,76,20,6.11
3430443,Necochea,AR,-38.5473,-58.7368,82.99,43,0,7.0
5354943,Half Moon Bay,US,37.4636,-122.4286,47.71,81,90,10.36
3423146,Ilulissat,GL,69.2167,-51.1,10.4,44,75,3.44
3832899,Viedma,AR,-40.8135,-62.9967,83.55,19,0,7.49
1529376,Korla,CN,41.7597,86.1469,55.22,31,44,7.58
2524371,Locri,IT,38.2414,16.2623,58.12,48,75,10.36
1649593,Baturaja,ID,-4.1333,104.1667,75.02,94,100,2.15
2409914,Bonthe,SL,7.5264,-12.505,88.18,60,99,9.93
3983805,Santa Rosalía,MX,27.3167,-112.2833,51.22,60,0,7.49
2012956,Yerbogachën,RU,61.2767,108.0108,5.18,92,58,8.39
1801934,Luohe,CN,33.5717,114.0353,54.18,74,84,6.64
1214026,Sabang,ID,5.8933,95.3214,83.1,74,100,13.04
2122783,Katangli,RU,51.7102,143.2326,29.98,91,91,13.85
2084442,Vanimo,PG,-2.6741,141.3028,78.13,85,62,4.47
3397763,Jacareacanga,BR,-6.2222,-57.7528,92.16,51,88,1.59
3400541,Exu,BR,-7.5119,-39.7242,80.89,72,47,4.32
4641998,Millington,US,35.3415,-89.8973,58.15,88,90,10.36
2018553,Ol'ga,RU,43.7444,135.2892,32.83,72,100,2.17
3388847,São Félix do Xingu,BR,-6.6447,-51.995,73.27,99,98,2.39
893549,Chipinge,ZW,-20.1883,32.6236,70.7,69,7,6.17
1580240,Hue,VN,16.4667,107.6,75.2,88,40,2.3
1687894,Santa Rosa,PH,14.3122,121.1114,79.12,74,75,8.05
1127547,Sangīn,AF,32.0728,64.8359,66.16,44,96,16.58
2460954,Araouane,ML,18.9048,-3.5265,85.06,20,52,9.57
1054329,Vangaindrano,MG,-23.35,47.6,75.78,89,23,6.87
2240449,Luanda,AO,-8.8368,13.2343,86.0,70,40,12.66
4003739,Juchipila,MX,21.4167,-103.1167,72.09,24,0,1.74
4323873,Estelle,US,29.8458,-90.1067,71.44,94,75,5.75
3667478,Tame,CO,6.461,-71.73,79.83,57,100,6.96
1254046,Tura,IN,25.5198,90.2201,67.64,67,97,2.71
359792,Aswān,EG,24.0934,32.907,85.28,10,21,13.51
2021017,Kysyl-Syr,RU,63.8986,122.7617,16.9,95,100,1.9
1857260,Mikuni,JP,36.2171,136.1519,48.2,81,75,13.8
876177,Luau,AO,-10.7073,22.2247,69.19,92,100,4.47
3111107,Salamanca,ES,40.8333,-6.0,51.64,63,28,4.0
475438,Verkhneyarkeyevo,RU,55.4505,54.3145,10.65,86,0,11.92
1696188,Palauig,PH,15.435,119.9045,79.95,70,93,4.34
108410,Riyadh,SA,24.6877,46.7219,75.65,19,1,8.05
3980190,García,MX,25.8167,-100.5833,66.38,94,90,6.91
1650434,Bambanglipuro,ID,-7.95,110.2833,78.01,78,100,3.76
3448903,São João da Barra,BR,-21.6403,-41.0511,87.8,58,20,2.3
1640344,Kendari,ID,-3.945,122.4989,77.9,89,40,1.48
6089245,Norman Wells,CA,65.282,-126.8329,-14.8,84,20,8.05
4135840,West Helena,US,34.5507,-90.6418,61.7,100,1,7.72
3102677,Braniewo,PL,54.3797,19.8196,42.53,76,94,12.15
286621,Salalah,OM,17.0151,54.0924,80.6,61,0,9.22
2168305,Dubbo,AU,-32.25,148.6167,71.6,83,90,6.91
4670592,Alvin,US,29.4238,-95.2441,70.95,92,92,1.01
95788,Hīt,IQ,33.6416,42.8251,62.08,32,0,4.81
4160812,Key West,US,24.5557,-81.7826,77.16,65,75,10.36
5411479,Alamosa,US,37.4695,-105.87,37.4,48,1,6.91
2122493,Omsukchan,RU,62.5333,155.8,-13.2,94,100,5.23
751949,Ardeşen,TR,41.1911,40.9875,48.2,57,0,4.61
933995,Souillac,MU,-20.5167,57.5167,80.6,78,75,9.22
1626493,Srandakan,ID,-7.9386,110.2506,78.24,77,100,3.89
1052944,Angoche,MZ,-16.2325,39.9086,81.79,80,12,7.05
4004293,Ixtapa,MX,20.7,-105.2,64.4,77,1,2.98
104515,Makkah al Mukarramah,SA,21.4267,39.8261,87.46,29,0,15.5
1786855,Yatou,CN,37.15,122.3833,43.2,73,3,2.71
2120047,Ust'-Omchug,RU,61.15,149.6333,-22.58,99,18,3.4
2517750,Felanitx,ES,39.4696,3.1483,61.97,67,20,11.5
485660,Tsimmerbude,RU,54.675,20.1347,46.4,61,40,8.95
1490256,Talnakh,RU,69.4865,88.3972,-19.3,99,100,5.44
305742,Kulu,TR,39.0951,33.0799,49.6,34,51,3.96
2128975,Nemuro,JP,43.3236,145.575,33.3,77,100,7.11
1491006,Staroaleyskoye,RU,51.0061,82.0,-10.37,99,43,1.99
60019,Eyl,SO,7.9803,49.8164,80.29,71,5,12.33
630752,Ylöjärvi,FI,61.5563,23.5961,37.13,81,90,6.91
2015306,Tiksi,RU,71.6872,128.8694,-3.33,87,100,13.96
53654,Mogadishu,SO,2.0371,45.3438,84.2,65,75,12.66
1295765,Sittwe,MM,20.15,92.9,78.78,67,0,12.64
5870133,Nome,US,64.5011,-165.4064,8.24,78,90,24.16
2229267,Lolodorf,CM,3.2333,10.7333,78.96,89,93,3.8
1624725,Tarakan,ID,3.3,117.6333,79.41,73,71,0.74
3530103,San Miguel de Cozumel,MX,20.5083,-86.9458,81.16,57,40,16.11
5423092,Glenwood Springs,US,39.5505,-107.3248,26.06,79,75,5.75
5826559,Green River,US,41.5286,-109.4662,28.4,74,90,29.93
3462103,Grão Mogol,BR,-16.5594,-42.8897,79.97,53,0,6.4
2630299,Hofn,IS,64.2539,-15.2082,35.31,56,100,25.64
3395042,Mazagão,BR,-0.115,-51.2894,86.0,74,75,5.75
1489853,Tazovsky,RU,67.4667,78.7,-18.99,88,0,12.53
2507480,Algiers,DZ,36.7525,3.042,66.2,68,40,9.22
2021041,Kyra,RU,49.5776,111.9753,33.55,57,7,2.93
2847319,Ried,DE,48.477,11.2606,50.74,46,40,21.85
3374333,Praia,CV,14.9215,-23.5087,82.4,17,0,18.41
3723779,Jacmel,HT,18.2342,-72.5347,84.2,48,20,2.3
5969025,Haines Junction,CA,60.7522,-137.5108,-2.2,60,87,5.75
4100525,Batesville,US,35.7698,-91.641,51.58,100,90,3.44
2138555,Poum,NC,-20.2333,164.0167,79.5,74,100,15.99
3386213,Touros,BR,-5.1989,-35.4608,87.8,55,75,13.8
1253237,Verāval,IN,20.9,70.3667,76.84,76,0,11.12
4513583,Hamilton,US,39.1834,-84.5333,42.33,42,1,3.44
1337610,Thinadhoo,MV,0.5333,72.9333,84.27,67,28,7.85
1498283,Mugur-Aksy,RU,50.35,90.5,7.36,81,84,15.7
3123493,Ferrol,ES,43.4832,-8.2369,56.16,76,75,13.8
1731248,Alugan,PH,12.2188,125.4808,77.97,85,100,4.41
3576994,Cockburn Town,TC,21.4612,-71.1419,75.83,77,0,18.66
1242110,Kalmunai,LK,7.4167,81.8167,79.79,82,63,11.88
3911120,Los Negros,BO,-17.7333,-63.4333,85.1,74,75,6.91
2016735,Sherlovaya Gora,RU,50.5667,116.25,25.07,72,33,6.04
2077895,Alice Springs,AU,-23.7,133.8833,68.0,100,75,12.66
1732738,Kota Tinggi,MY,1.7381,103.8999,77.61,94,20,2.3
2120612,Tigil',RU,57.8,158.6667,0.63,93,64,9.4
650224,Kuopio,FI,62.8924,27.677,28.4,93,90,6.91
6255012,Flinders,AU,-34.5833,150.8552,72.18,87,82,8.01
80509,Al Bardīyah,LY,31.7561,25.0865,60.71,58,99,9.55
128234,Kerman,IR,30.2832,57.0788,60.8,21,0,23.02
3533462,Acapulco de Juárez,MX,16.8634,-99.8901,80.6,78,1,3.44
1505965,Igrim,RU,63.1906,64.4162,17.19,80,4,12.12
102527,Sakakah,SA,29.9697,40.2064,66.2,24,0,2.01
6137381,Saint-Ambroise,CA,48.5501,-71.3324,10.17,66,100,18.41
1635815,Maumere,ID,-8.6199,122.2111,80.37,82,100,1.77
513042,Pallasovka,RU,50.05,46.8833,20.25,75,100,10.45
933759,Ghanzi,BW,-21.5667,21.7833,84.16,35,95,7.76
1786657,Yinchuan,CN,38.4681,106.2731,59.56,29,43,6.49
5500539,Boulder City,US,35.9786,-114.8325,41.9,93,1,3.44
2122605,Okhotsk,RU,59.3833,143.3,-2.78,69,0,10.92
2121373,Seymchan,RU,62.8833,152.4333,-15.3,88,20,3.36
3388456,São José da Coroa Grande,BR,-8.8978,-35.1478,84.18,63,31,11.23
2748391,Gemeente Putten,NL,52.25,5.6,44.58,82,100,8.01
3037456,Antibes,FR,43.5624,7.1278,62.08,63,0,11.5
3388368,São Luís,BR,-2.5297,-44.3028,87.8,66,75,12.66
5069297,Grand Island,US,40.925,-98.342,39.2,81,90,8.05
1505526,Irbit,RU,57.6705,63.071,15.39,84,0,8.08
3620266,Corn Island,NI,12.1694,-83.0418,79.2,77,0,15.77
244878,Biltine,TD,14.5333,20.9167,104.88,6,64,7.61
4944903,Nantucket,US,41.2835,-70.0995,35.33,48,1,20.71
3374083,Bathsheba,BB,13.2167,-59.5167,84.2,58,40,17.27
3592086,Ocós,GT,14.5094,-92.1933,84.29,66,1,4.94
1170398,Minchianabad,PK,30.163,73.5685,73.2,22,10,4.09
7647007,Bariloche,AR,-41.1456,-71.3082,70.77,36,0,2.3
3435038,Dolores,AR,-36.3132,-57.6792,81.61,26,46,4.47
3146487,Raudeberg,NO,61.9875,5.1352,42.01,76,100,10.63
5146062,Ashland,US,40.8167,-82.2665,34.57,60,1,4.05
1280849,Kashgar,CN,39.4547,75.9797,51.8,30,40,4.47
3421982,Maniitsoq,GL,65.4167,-52.9,13.91,72,24,3.6
2281120,Tabou,CI,4.423,-7.3528,85.41,69,100,8.55
3879123,Nacimiento,CL,-37.5,-72.6667,71.6,53,0,5.75
2315026,Kasongo-Lunda,CD,-6.4667,16.8167,89.53,54,100,0.69
1489822,Tegul'det,RU,57.3064,88.1667,7.29,92,100,10.74
2126785,Belaya Gora,RU,68.5333,146.4167,-22.99,91,0,1.7
2618795,Klaksvík,FO,62.2266,-6.589,41.0,87,75,26.46
3012664,Issoire,FR,45.55,3.25,53.6,62,90,8.05
2632287,Dalvik,IS,65.9702,-18.5286,26.6,74,75,17.27
1629965,Tanete,ID,-3.9443,119.7848,76.28,88,25,1.66
64814,Bandarbeyla,SO,9.4942,50.8122,79.09,79,68,11.92
1637510,Loa Janan,ID,-0.583,117.095,74.34,96,52,1.14
6945992,Betsiamites,CA,48.9413,-68.646,21.2,42,1,16.11
2120048,Ust-Nera,RU,64.5667,143.2,-23.06,98,46,4.14
504576,Protvino,RU,54.8664,37.2178,27.48,80,90,8.95
2112802,Hasaki,JP,35.7333,140.8333,47.53,87,20,4.61
235039,Arua,UG,3.0201,30.9111,88.02,22,46,9.37
3516171,Barra de Tecoanapa,MX,16.5167,-98.75,82.29,53,0,0.92
2178753,Kirakira,SB,-10.4544,161.9205,79.29,80,100,2.39
2026786,Berezovyy,RU,51.6667,135.7,25.59,84,0,4.97
6137462,Saint-Augustin,CA,51.226,-58.6502,30.16,96,100,6.82
3881102,Machalí,CL,-34.1833,-70.6667,73.4,40,0,2.3
1264976,Leh,IN,34.1667,77.5833,26.02,48,0,1.28
6690296,Saint-Joseph,RE,-21.3667,55.6167,75.25,74,20,20.71
3459785,João Pinheiro,BR,-17.7425,-46.1725,81.05,63,0,5.61
1337607,Kudahuvadhoo,MV,2.6708,72.8944,83.82,71,0,9.75
1714733,Dingle,PH,10.9995,122.6711,73.99,95,100,5.26
5767918,Pierre,US,44.3683,-100.351,39.49,69,1,3.44
2068110,Kununurra,AU,-15.7667,128.7333,80.6,94,58,3.44
3092472,Malbork,PL,54.0359,19.0266,45.0,100,100,16.51
4829791,Albertville,US,34.2676,-86.2089,65.05,82,40,4.61
5404476,Ukiah,US,39.1502,-123.2078,37.24,80,1,3.11
1275818,Bhuban,IN,20.8833,85.8333,78.15,49,55,6.62
3545867,Nueva Gerona,CU,21.8833,-82.8,76.53,67,7,16.33
2123621,Mago,RU,53.2514,140.1822,23.34,96,60,4.45
6032673,Lac-Mégantic,CA,45.5834,-70.8823,19.04,64,100,13.0
1266452,Chalakudi,IN,10.304,76.3361,84.2,70,40,4.61
